Unnamed: 0,Address,Locality,Price,Beds,Area,Full Bath,Half Bath,Lot Size,Latitude,Longitude
0,0 Gateway,"Rock Springs, WY 82901","$725,000",,,,,,38.68324000000007,-108.97223999999994
1,1003 Winchester Blvd.,"Rock Springs, WY 82901","$452,900",4.0,,4.0,,0.21 Acres,53.42876000000007,-2.9482399999999416
2,600 Talladega,"Rock Springs, WY 82901","$396,900",5.0,3154.0,3.0,,,33.434510000000046,-86.10268999999994
3,3239 Spearhead Way,"Rock Springs, WY 82901","$389,900",4.0,3076.0,3.0,1.0,,50.85080000000005,3.092700000000036
4,522 Emerald Street,"Rock Springs, WY 82901","$254,000",3.0,1172.0,3.0,,"Under 1/2 Acre, ",40.67844519968248,-76.24125940310044
5,1302 Veteran's Drive,"Rock Springs, WY 82901","$252,900",4.0,1932.0,2.0,,0.27 Acres,,
6,205/10 Školská,"Slovenská Kajňa, 09402",,8.0,1500.0,2.0,,,45.43321000000003,13.527220000000057
